{
	"central.scottish.way": {
		"ldwa": "0162",
		"dist_walked": "0",
		"name": "Central Scottish Way",
		"zoom": "8",
		"fullname": "Central Scottish Way",
		"days_walked": 0,
		"date_end": "",
		"latitude": "55.856800",
		"date_start": "",
		"custom": "",
		"days_camped": 0,
		"longitude": "-3.142090",
		"dist_route": "147",
		"days_other": 0,
		"complete": "0"
	},
	"thanet.coast": {
		"dist_route": "21",
		"days_other": 0,
		"complete": "100",
		"custom": "",
		"date_start": "2013-01-14",
		"longitude": "1.332090",
		"days_camped": 1,
		"days_walked": 2,
		"latitude": "51.352100",
		"date_end": "2013-01-15",
		"dist_walked": "21",
		"ldwa": "1107",
		"fullname": "Thanet Coastal Path",
		"zoom": "12",
		"name": "Thanet Coast"
	},
	"shakespeares.way": {
		"days_camped": 0,
		"longitude": "-1.197510",
		"custom": "",
		"date_start": "",
		"complete": "0",
		"days_other": 0,
		"dist_route": "129",
		"name": "Shakespeare's Way",
		"zoom": "9",
		"fullname": "Shakespeare's Way",
		"ldwa": "0945",
		"dist_walked": "0",
		"latitude": "51.779700",
		"date_end": "",
		"days_walked": 0
	},
	"berwick.boundary": {
		"name": "Berwick Boundary",
		"zoom": "10",
		"fullname": "Berwick Borough Boundary Walk",
		"ldwa": "0075",
		"dist_walked": "0",
		"date_end": "",
		"latitude": "55.583000",
		"days_walked": 0,
		"longitude": "-2.024230",
		"days_camped": 0,
		"date_start": "",
		"custom": "",
		"days_other": 0,
		"complete": "0",
		"dist_route": "109"
	},
	"suffolk.coast.and.heath": {
		"custom": "",
		"date_start": "",
		"days_camped": 0,
		"longitude": "1.610870",
		"dist_route": "58",
		"days_other": 0,
		"complete": "0",
		"ldwa": "1060",
		"dist_walked": "0",
		"name": "Suffolk Coast and Heath",
		"zoom": "10",
		"fullname": "Suffolk Coast and Heath Path",
		"days_walked": 0,
		"date_end": "",
		"latitude": "52.209300"
	},
	"join.8": {
		"name": "Cumbria to Gretna",
		"zoom": "12",
		"fullname": "Cumbria to Gretna",
		"ldwa": "9011",
		"dist_walked": "3",
		"latitude": "54.984500",
		"date_end": "2014-06-22",
		"days_walked": 1,
		"days_camped": 0,
		"longitude": "-3.039090",
		"custom": "",
		"date_start": "2014-06-22",
		"days_other": 0,
		"complete": "100",
		"dist_route": "3"
	},
	"wirral.circular": {
		"dist_route": "36",
		"days_other": 0,
		"complete": "55",
		"date_start": "2014-05-30",
		"custom": "",
		"days_camped": 1,
		"longitude": "-3.059690",
		"days_walked": 2,
		"date_end": "",
		"latitude": "53.358300",
		"ldwa": "1298",
		"dist_walked": "20",
		"name": "Wirral Circular",
		"zoom": "11",
		"fullname": "Wirral Circular Trail"
	},
	"white.cliffs": {
		"zoom": "12",
		"fullname": "White Cliffs Country Trails",
		"name": "White Cliffs",
		"dist_walked": "10",
		"ldwa": "1278",
		"date_end": "2013-01-14",
		"latitude": "51.174800",
		"days_walked": 1,
		"longitude": "1.358530",
		"days_camped": 0,
		"custom": "",
		"date_start": "2013-01-14",
		"days_other": 0,
		"complete": "100",
		"dist_route": "10"
	},
	"hadrians.coast": {
		"days_other": 0,
		"complete": "100",
		"dist_route": "76",
		"longitude": "-3.370060",
		"days_camped": 4,
		"date_start": "2014-06-17",
		"custom": "",
		"date_end": "2014-06-21",
		"latitude": "54.678600",
		"days_walked": 5,
		"fullname": "Hadrian's Coastal Route",
		"zoom": "9",
		"name": "Hadrian's Coast",
		"dist_walked": "76",
		"ldwa": "0454"
	},
	"west.sussex.literary": {
		"date_end": "",
		"latitude": "50.953700",
		"days_walked": 0,
		"zoom": "11",
		"fullname": "West Sussex Literary Trail",
		"name": "West Sussex Literary",
		"dist_walked": "0",
		"ldwa": "1265",
		"complete": "0",
		"days_other": 0,
		"dist_route": "49",
		"days_camped": 0,
		"longitude": "-0.526657",
		"date_start": "",
		"custom": ""
	},
	"calderdale.way": {
		"ldwa": "0140",
		"dist_walked": "0",
		"name": "Calderdale Way",
		"zoom": "11",
		"fullname": "Calderdale Way",
		"days_walked": 0,
		"date_end": "",
		"latitude": "53.723900",
		"date_start": "",
		"custom": "",
		"days_camped": 0,
		"longitude": "-1.925350",
		"dist_route": "50",
		"complete": "0",
		"days_other": 0
	},
	"st.cuthberts": {
		"ldwa": "1023",
		"dist_walked": "0",
		"name": "St Cuthbert's Way",
		"fullname": "St Cuthbert's Way",
		"zoom": "10",
		"days_walked": 0,
		"latitude": "55.550400",
		"date_end": "",
		"custom": "",
		"date_start": "",
		"days_camped": 0,
		"longitude": "-2.254940",
		"dist_route": "64",
		"days_other": 0,
		"complete": "0"
	},
	"fife.coast": {
		"zoom": "10",
		"fullname": "Fife Coastal Path",
		"name": "Fife Coast",
		"dist_walked": "0",
		"ldwa": "0379",
		"date_end": "",
		"latitude": "56.238000",
		"days_walked": 0,
		"longitude": "-3.228610",
		"days_camped": 0,
		"date_start": "",
		"custom": "",
		"days_other": 0,
		"complete": "0",
		"dist_route": "115"
	},
	"great.english.walk": {
		"longitude": "-2.065430",
		"days_camped": 0,
		"date_start": "",
		"custom": "",
		"days_other": 0,
		"complete": "0",
		"dist_route": "586",
		"name": "Great English Walk",
		"zoom": "7",
		"fullname": "Great English Walk",
		"ldwa": "0438",
		"dist_walked": "0",
		"date_end": "",
		"latitude": "53.638100",
		"days_walked": 0
	},
	"ayrshire.coast": {
		"dist_route": "78",
		"complete": "0",
		"days_other": 0,
		"custom": "",
		"date_start": "",
		"longitude": "-4.812010",
		"days_camped": 0,
		"days_walked": 0,
		"date_end": "",
		"latitude": "55.463300",
		"dist_walked": "0",
		"ldwa": "0049",
		"zoom": "8",
		"fullname": "Ayrshire Coastal Path",
		"name": "Ayrshire Coast"
	},
	"e8": {
		"zoom": "8",
		"fullname": "E8 Hull to Liverpool",
		"name": "E8",
		"dist_walked": "0",
		"ldwa": "0326",
		"latitude": "53.497800",
		"date_end": "",
		"days_walked": 0,
		"longitude": "-1.642460",
		"days_camped": 0,
		"date_start": "",
		"custom": "",
		"days_other": 0,
		"complete": "0",
		"dist_route": "179"
	},
	"west.highland.way": {
		"days_walked": 0,
		"date_end": "",
		"latitude": "56.328700",
		"ldwa": "1260",
		"dist_walked": "0",
		"name": "West Highland Way",
		"zoom": "9",
		"fullname": "West Highland Way - National Trail",
		"dist_route": "94",
		"days_other": 0,
		"complete": "0",
		"custom": "",
		"date_start": "",
		"longitude": "-4.743350",
		"days_camped": 0
	},
	"cotswold.diamond": {
		"date_start": "",
		"custom": "",
		"days_camped": 0,
		"longitude": "-1.754380",
		"dist_route": "65",
		"complete": "0",
		"days_other": 0,
		"ldwa": "0304",
		"dist_walked": "0",
		"name": "Cotswold Diamond",
		"fullname": "Diamond Way North Cotswold",
		"zoom": "11",
		"days_walked": 0,
		"latitude": "51.940900",
		"date_end": ""
	},
	"join.4": {
		"days_other": 0,
		"complete": "100",
		"dist_route": "2",
		"longitude": "-2.370300",
		"days_camped": 0,
		"custom": "",
		"date_start": "2013-08-25",
		"latitude": "51.782700",
		"date_end": "2013-08-25",
		"days_walked": 1,
		"name": "Frampton on Severn",
		"zoom": "12",
		"fullname": "Frampton on Severn",
		"ldwa": "9007",
		"dist_walked": "2"
	},
	"offas.dyke": {
		"days_other": 1,
		"complete": "100",
		"dist_route": "179",
		"days_camped": 9,
		"longitude": "-3.246460",
		"custom": "",
		"date_start": "2013-05-08",
		"date_end": "2013-05-16",
		"latitude": "52.479400",
		"days_walked": 9,
		"name": "Offa's Dyke",
		"zoom": "8",
		"fullname": "Offa's Dyke Path - National Trail",
		"ldwa": "0788",
		"dist_walked": "179"
	},
	"oxfordshire.way": {
		"dist_walked": "29",
		"ldwa": "0805",
		"zoom": "10",
		"fullname": "Oxfordshire Way",
		"name": "Oxfordshire Way",
		"days_walked": 2,
		"date_end": "",
		"latitude": "51.720200",
		"custom": "",
		"date_start": "2012-12-21",
		"days_camped": 1,
		"longitude": "-1.332090",
		"dist_route": "70",
		"days_other": 0,
		"complete": "41"
	},
	"pilgrims.way": {
		"dist_walked": "103",
		"ldwa": "0841",
		"fullname": "Pilgrim's Way",
		"zoom": "9",
		"name": "Pilgrim's Way",
		"days_walked": 5,
		"latitude": "51.025800",
		"date_end": "",
		"custom": "",
		"date_start": "2013-02-04",
		"longitude": "-0.131836",
		"days_camped": 4,
		"dist_route": "150",
		"complete": "69",
		"days_other": 0
	},
	"trans.pennine": {
		"dist_route": "209",
		"days_other": 0,
		"complete": "0",
		"date_start": "",
		"custom": "",
		"longitude": "-1.609500",
		"days_camped": 0,
		"days_walked": 0,
		"latitude": "53.589200",
		"date_end": "",
		"ldwa": "1160",
		"dist_walked": "0",
		"name": "Trans-Pennine",
		"zoom": "8",
		"fullname": "Trans-Pennine Trail"
	},
	"five.degrees.west": {
		"dist_walked": "113",
		"ldwa": "0381",
		"fullname": "Five Degrees West Challenge",
		"zoom": "7",
		"name": "Five Degrees West",
		"days_walked": 8,
		"date_end": "",
		"latitude": "57.106400",
		"date_start": "2013-06-10",
		"custom": "",
		"longitude": "-4.943850",
		"days_camped": 7,
		"dist_route": "289",
		"days_other": 1,
		"complete": "39"
	},
	"staffordshire.gritstone": {
		"latitude": "53.158300",
		"date_end": "",
		"days_walked": 0,
		"name": "Staffordshire Gritstone",
		"zoom": "12",
		"fullname": "Staffordshire Gritstone Walk",
		"ldwa": "1038",
		"dist_walked": "0",
		"days_other": 0,
		"complete": "0",
		"dist_route": "35",
		"longitude": "-1.947670",
		"days_camped": 0,
		"custom": "",
		"date_start": ""
	},
	"isaacs.tea.trail": {
		"longitude": "-2.347640",
		"days_camped": 0,
		"custom": "",
		"date_start": "",
		"days_other": 0,
		"complete": "0",
		"dist_route": "37",
		"name": "Isaac's Tea Trail",
		"zoom": "12",
		"fullname": "Isaac's Tea Trail",
		"ldwa": "0537",
		"dist_walked": "0",
		"latitude": "54.849900",
		"date_end": "",
		"days_walked": 0
	},
	"munros": {
		"date_start": "",
		"custom": "",
		"days_camped": 0,
		"longitude": "-4.224240",
		"days_other": 0,
		"ldwa": "9003",
		"dist_walked": "0",
		"name": "Munros",
		"zoom": "7",
		"fullname": "Munros - Scotland",
		"days_walked": 0,
		"date_end": "",
		"latitude": "56.670600"
	},
	"monarchs.way": {
		"date_end": "",
		"latitude": "51.655500",
		"days_walked": 0,
		"zoom": "8",
		"fullname": "Monarch's Way",
		"name": "Monarch's Way",
		"dist_walked": "0",
		"ldwa": "0723",
		"complete": "0",
		"days_other": 0,
		"dist_route": "565",
		"days_camped": 0,
		"longitude": "-2.147830",
		"date_start": "",
		"custom": ""
	},
	"glyndwrs.way": {
		"longitude": "-3.361820",
		"days_camped": 0,
		"custom": "",
		"date_start": "",
		"complete": "0",
		"days_other": 0,
		"dist_route": "137",
		"name": "Glyndwr's Way",
		"zoom": "10",
		"fullname": "Glyndwr's Way - National Trail",
		"ldwa": "0418",
		"dist_walked": "0",
		"date_end": "",
		"latitude": "52.538800",
		"days_walked": 0
	},
	"solent.way": {
		"longitude": "-1.196140",
		"days_camped": 2,
		"date_start": "2012-12-30",
		"custom": "",
		"complete": "93",
		"days_other": 1,
		"dist_route": "61",
		"name": "Solent Way",
		"zoom": "10",
		"fullname": "Solent Way",
		"ldwa": "0993",
		"dist_walked": "57",
		"latitude": "50.739900",
		"date_end": "",
		"days_walked": 5
	},
	"thames.estuary": {
		"name": "Thames Estuary",
		"fullname": "Thames Estuary Trail",
		"zoom": "10",
		"ldwa": "1103",
		"dist_walked": "0",
		"date_end": "",
		"latitude": "51.480500",
		"days_walked": 0,
		"longitude": "0.623474",
		"days_camped": 0,
		"custom": "",
		"date_start": "",
		"days_other": 0,
		"complete": "0",
		"dist_route": "115"
	},
	"wales.coast": {
		"days_camped": 42,
		"longitude": "-3.477170",
		"custom": "",
		"date_start": "2013-07-08",
		"complete": "100",
		"days_other": 0,
		"dist_route": "887",
		"name": "Wales Coast",
		"zoom": "8",
		"fullname": "Wales Coast Path",
		"ldwa": "1211",
		"dist_walked": "887",
		"date_end": "2013-08-17",
		"latitude": "52.442600",
		"days_walked": 41
	},
	"misc": {
		"date_start": "",
		"custom": "",
		"days_camped": 7,
		"longitude": "0.000000",
		"days_other": 0,
		"ldwa": "0000",
		"description": "Things with no hike",
		"dist_walked": "0",
		"name": "Misc",
		"fullname": "Misc",
		"zoom": "0",
		"days_walked": 0,
		"date_end": "",
		"latitude": "0.000000"
	},
	"ridgeway": {
		"ldwa": "0874",
		"dist_walked": "0",
		"name": "Ridgeway",
		"zoom": "10",
		"fullname": "Ridgeway - National Trail",
		"days_walked": 0,
		"date_end": "",
		"latitude": "51.614600",
		"custom": "",
		"date_start": "",
		"days_camped": 0,
		"longitude": "-1.186520",
		"dist_route": "86",
		"days_other": 0,
		"complete": "0"
	},
	"thames.path": {
		"days_other": 0,
		"complete": "78",
		"dist_route": "185",
		"days_camped": 6,
		"longitude": "-0.999756",
		"date_start": "2013-02-19",
		"custom": "",
		"date_end": "",
		"latitude": "51.536100",
		"days_walked": 8,
		"name": "Thames Path",
		"fullname": "Thames Path - National Trail",
		"zoom": "9",
		"ldwa": "1104",
		"dist_walked": "144"
	},
	"pennine.bridleway": {
		"custom": "",
		"date_start": "",
		"longitude": "-2.164310",
		"days_camped": 0,
		"dist_route": "163",
		"days_other": 0,
		"complete": "0",
		"ldwa": "0830",
		"dist_walked": "0",
		"name": "Pennine Bridleway",
		"zoom": "8",
		"fullname": "Pennine Bridleway - National Trail",
		"days_walked": 0,
		"latitude": "53.690200",
		"date_end": ""
	},
	"cumbria.coast": {
		"dist_route": "208",
		"complete": "100",
		"days_other": 0,
		"date_start": "2014-06-06",
		"custom": "",
		"days_camped": 10,
		"longitude": "-3.098150",
		"days_walked": 12,
		"latitude": "54.535400",
		"date_end": "2014-06-22",
		"ldwa": "0253",
		"dist_walked": "208",
		"name": "Cumbria Coast",
		"zoom": "9",
		"fullname": "Cumbria Coastal Way"
	},
	"peddars.way.and.norfolk.coast": {
		"longitude": "0.892639",
		"days_camped": 0,
		"custom": "",
		"date_start": "",
		"complete": "0",
		"days_other": 0,
		"dist_route": "97",
		"zoom": "9",
		"fullname": "Peddars Way and Norfolk Coast Path - National Trail",
		"name": "Peddars Way and Norfolk Coast",
		"dist_walked": "0",
		"ldwa": "0816",
		"latitude": "52.757900",
		"date_end": "",
		"days_walked": 0
	},
	"south.west.coast": {
		"days_walked": 36,
		"date_end": "2012-06-23",
		"latitude": "50.457500",
		"ldwa": "1010",
		"dist_walked": "622",
		"name": "South West Coast",
		"zoom": "8",
		"fullname": "South West Coast Path - National Trail",
		"dist_route": "622",
		"days_other": 4,
		"complete": "100",
		"custom": "",
		"date_start": "2012-04-30",
		"days_camped": 32,
		"longitude": "-4.037480"
	},
	"hobblers.way": {
		"custom": "",
		"date_start": "",
		"longitude": "-1.071170",
		"days_camped": 0,
		"dist_route": "192",
		"complete": "0",
		"days_other": 0,
		"dist_walked": "0",
		"ldwa": "0504",
		"zoom": "8",
		"fullname": "Hobblers Way",
		"name": "Hobblers Way",
		"days_walked": 0,
		"latitude": "52.221100",
		"date_end": ""
	},
	"welsh.3000s": {
		"dist_route": "24",
		"complete": "0",
		"days_other": 0,
		"custom": "",
		"date_start": "",
		"longitude": "-4.017910",
		"days_camped": 0,
		"days_walked": 0,
		"date_end": "",
		"latitude": "53.133200",
		"ldwa": "1249",
		"dist_walked": "0",
		"name": "Welsh 3000s",
		"fullname": "Welsh 3000s",
		"zoom": "12"
	},
	"coast.to.coast": {
		"dist_route": "188",
		"complete": "100",
		"days_other": 3,
		"custom": "",
		"date_start": "2012-09-28",
		"days_camped": 10,
		"longitude": "-2.032470",
		"days_walked": 13,
		"date_end": "2012-10-10",
		"latitude": "54.425300",
		"dist_walked": "188",
		"ldwa": "0210",
		"fullname": "Coast to Coast",
		"zoom": "8",
		"name": "Coast to Coast"
	},
	"oxford.green.belt": {
		"dist_route": "55",
		"complete": "100",
		"days_other": 0,
		"date_start": "2013-02-24",
		"custom": "",
		"days_camped": 2,
		"longitude": "-1.208500",
		"days_walked": 4,
		"date_end": "2013-03-07",
		"latitude": "51.743600",
		"dist_walked": "55",
		"ldwa": "0804",
		"zoom": "11",
		"fullname": "Oxford Green Belt Way",
		"name": "Oxford Green Belt"
	},
	"cross.cotswold": {
		"dist_route": "90",
		"complete": "0",
		"days_other": 0,
		"custom": "",
		"date_start": "",
		"days_camped": 0,
		"longitude": "-1.881410",
		"days_walked": 0,
		"latitude": "51.801800",
		"date_end": "",
		"ldwa": "0667",
		"dist_walked": "0",
		"name": "Cross Cotswold",
		"zoom": "9",
		"fullname": "Cross Cotswold Pathway"
	},
	"tandridge.border": {
		"name": "Tandridge Border",
		"zoom": "11",
		"fullname": "Tandridge Border Path",
		"ldwa": "1083",
		"dist_walked": "0",
		"latitude": "51.231800",
		"date_end": "",
		"days_walked": 0,
		"longitude": "-0.045319",
		"days_camped": 0,
		"custom": "",
		"date_start": "",
		"days_other": 0,
		"complete": "0",
		"dist_route": "52"
	},
	"millennium.way": {
		"dist_route": "38",
		"days_other": 0,
		"complete": "0",
		"date_start": "",
		"custom": "",
		"longitude": "-1.972050",
		"days_camped": 0,
		"days_walked": 0,
		"latitude": "52.762900",
		"date_end": "",
		"ldwa": "0709",
		"dist_walked": "0",
		"name": "Millennium Way",
		"zoom": "10",
		"fullname": "Way For The Millennium"
	},
	"join.5": {
		"ldwa": "9008",
		"dist_walked": "8",
		"name": "Chester to Wirral",
		"fullname": "Chester to Wirral",
		"zoom": "12",
		"days_walked": 2,
		"latitude": "53.250000",
		"date_end": "2014-05-30",
		"custom": "",
		"date_start": "2014-05-29",
		"longitude": "-3.007850",
		"days_camped": 1,
		"dist_route": "8",
		"days_other": 0,
		"complete": "100"
	},
	"pembrokeshire.coast": {
		"days_walked": 10,
		"date_end": "2013-08-08",
		"latitude": "51.849400",
		"dist_walked": "177",
		"ldwa": "0817",
		"fullname": "Pembrokeshire Coast Path - National Trail",
		"zoom": "10",
		"name": "Pembrokeshire Coast",
		"dist_route": "177",
		"days_other": 0,
		"complete": "100",
		"date_start": "2013-07-30",
		"custom": "",
		"days_camped": 9,
		"longitude": "-4.879300"
	},
	"wantsum.walk": {
		"date_start": "",
		"custom": "",
		"days_camped": 0,
		"longitude": "1.214680",
		"dist_route": "19",
		"complete": "0",
		"days_other": 0,
		"ldwa": "1227",
		"dist_walked": "0",
		"name": "Wantsum Walk",
		"zoom": "12",
		"fullname": "Wantsum Walk",
		"days_walked": 0,
		"latitude": "51.356300",
		"date_end": ""
	},
	"cotswold.canals": {
		"dist_route": "43",
		"days_other": 0,
		"complete": "55",
		"date_start": "2013-02-28",
		"custom": "",
		"longitude": "-2.028350",
		"days_camped": 1,
		"days_walked": 3,
		"date_end": "",
		"latitude": "51.723600",
		"ldwa": "0226",
		"dist_walked": "24",
		"name": "Cotswold Canals",
		"zoom": "10",
		"fullname": "Cotswold Canals Walk"
	},
	"southern.upland.way": {
		"date_start": "",
		"custom": "",
		"days_camped": 0,
		"longitude": "-3.543090",
		"dist_route": "211",
		"days_other": 0,
		"complete": "0",
		"ldwa": "1012",
		"dist_walked": "0",
		"name": "Southern Upland Way",
		"zoom": "8",
		"fullname": "Southern Upland Way - National Trail",
		"days_walked": 0,
		"date_end": "",
		"latitude": "55.394700"
	},
	"south.tyne.trail": {
		"name": "South Tyne Trail",
		"zoom": "11",
		"fullname": "South Tyne Trail",
		"ldwa": "1008",
		"dist_walked": "0",
		"date_end": "",
		"latitude": "54.844200",
		"days_walked": 0,
		"longitude": "-2.462310",
		"days_camped": 0,
		"date_start": "",
		"custom": "",
		"complete": "0",
		"days_other": 0,
		"dist_route": "22"
	},
	"hangers.way": {
		"dist_route": "21",
		"days_other": 0,
		"complete": "0",
		"custom": "",
		"date_start": "",
		"days_camped": 0,
		"longitude": "-0.925598",
		"days_walked": 0,
		"date_end": "",
		"latitude": "51.062100",
		"ldwa": "0462",
		"dist_walked": "0",
		"name": "Hanger's Way",
		"zoom": "10",
		"fullname": "Hanger's Way"
	},
	"arden.way": {
		"ldwa": "0032",
		"dist_walked": "8",
		"name": "Arden Way",
		"fullname": "Arden Way",
		"zoom": "12",
		"days_walked": 2,
		"latitude": "52.264400",
		"date_end": "",
		"date_start": "2012-12-18",
		"custom": "",
		"days_camped": 1,
		"longitude": "-1.849140",
		"dist_route": "27",
		"complete": "28",
		"days_other": 0
	},
	"cumbria.way": {
		"days_other": 0,
		"complete": "0",
		"dist_route": "74",
		"longitude": "-3.081670",
		"days_camped": 0,
		"date_start": "",
		"custom": "",
		"date_end": "",
		"latitude": "54.557700",
		"days_walked": 0,
		"name": "Cumbria Way",
		"zoom": "9",
		"fullname": "Cumbria Way",
		"ldwa": "0254",
		"dist_walked": "0"
	},
	"dane.valley": {
		"longitude": "-2.142330",
		"days_camped": 0,
		"date_start": "",
		"custom": "",
		"complete": "0",
		"days_other": 0,
		"dist_route": "41",
		"name": "Dane Valley",
		"zoom": "10",
		"fullname": "Dane Valley Way",
		"ldwa": "0269",
		"dist_walked": "0",
		"latitude": "53.206000",
		"date_end": "",
		"days_walked": 0
	},
	"midshires.way": {
		"complete": "0",
		"days_other": 0,
		"dist_route": "224",
		"longitude": "-1.334840",
		"days_camped": 0,
		"custom": "",
		"date_start": "",
		"latitude": "52.636400",
		"date_end": "",
		"days_walked": 0,
		"fullname": "Midshires Way",
		"zoom": "8",
		"name": "Midshires Way",
		"dist_walked": "0",
		"ldwa": "0705"
	},
	"annandale.way": {
		"name": "Annandale Way",
		"fullname": "Annandale Way",
		"zoom": "10",
		"ldwa": "0026",
		"dist_walked": "0",
		"date_end": "",
		"latitude": "55.160900",
		"days_walked": 0,
		"days_camped": 0,
		"longitude": "-3.305510",
		"custom": "",
		"date_start": "",
		"complete": "0",
		"days_other": 0,
		"dist_route": "53"
	},
	"macmillan.way": {
		"ldwa": "0666",
		"dist_walked": "0",
		"name": "Macmillan Way",
		"zoom": "7",
		"fullname": "Macmillan Way",
		"days_walked": 0,
		"date_end": "",
		"latitude": "52.099800",
		"date_start": "",
		"custom": "",
		"days_camped": 0,
		"longitude": "-1.065670",
		"dist_route": "287",
		"complete": "0",
		"days_other": 0
	},
	"elham.valley": {
		"dist_walked": "0",
		"ldwa": "0355",
		"zoom": "11",
		"fullname": "Elham Valley Way",
		"name": "Elham Valley",
		"days_walked": 0,
		"date_end": "",
		"latitude": "51.184900",
		"custom": "",
		"date_start": "",
		"days_camped": 0,
		"longitude": "1.119230",
		"dist_route": "22",
		"days_other": 0,
		"complete": "0"
	},
	"esk.valley": {
		"latitude": "54.428500",
		"date_end": "",
		"days_walked": 0,
		"name": "Esk Valley",
		"fullname": "Esk Valley Walk",
		"zoom": "11",
		"ldwa": "0362",
		"dist_walked": "0",
		"complete": "0",
		"days_other": 0,
		"dist_route": "37",
		"longitude": "-0.790329",
		"days_camped": 0,
		"custom": "",
		"date_start": ""
	},
	"coast.to.coast.alternative": {
		"days_camped": 0,
		"longitude": "-2.433470",
		"custom": "",
		"date_start": "",
		"complete": "0",
		"days_other": 0,
		"dist_route": "200",
		"name": "Alternative Coast to Coast",
		"zoom": "8",
		"fullname": "Alternative Coast to Coast",
		"ldwa": "0017",
		"dist_walked": "0",
		"latitude": "54.829200",
		"date_end": "",
		"days_walked": 0
	},
	"dales.walk": {
		"fullname": "Dales Walk",
		"zoom": "10",
		"name": "Dales Walk",
		"dist_walked": "13",
		"ldwa": "0261",
		"latitude": "54.372600",
		"date_end": "",
		"days_walked": 2,
		"longitude": "-2.050320",
		"days_camped": 1,
		"date_start": "2012-10-04",
		"custom": "",
		"complete": "18",
		"days_other": 1,
		"dist_route": "73"
	},
	"tennyson.trail": {
		"days_other": 0,
		"complete": "0",
		"dist_route": "14",
		"days_camped": 0,
		"longitude": "-1.428910",
		"custom": "",
		"date_start": "",
		"latitude": "50.663000",
		"date_end": "",
		"days_walked": 0,
		"name": "Tennyson Trail",
		"fullname": "Tennyson Trail",
		"zoom": "11",
		"ldwa": "1097",
		"dist_walked": "0"
	},
	"berwick.coast": {
		"days_walked": 0,
		"date_end": "",
		"latitude": "55.866700",
		"dist_walked": "0",
		"ldwa": "0076",
		"zoom": "11",
		"fullname": "Berwickshire Coastal Path",
		"name": "Berwick Coast",
		"dist_route": "29",
		"complete": "0",
		"days_other": 0,
		"custom": "",
		"date_start": "",
		"longitude": "-2.166670",
		"days_camped": 0
	},
	"counties": {
		"latitude": "0.000000",
		"date_end": "",
		"days_walked": 0,
		"name": "Counties",
		"zoom": "0",
		"fullname": "Counties",
		"ldwa": "0000",
		"dist_walked": "0",
		"days_other": 0,
		"days_camped": 0,
		"longitude": "0.000000",
		"date_start": "",
		"custom": ""
	},
	"saxon.shore": {
		"complete": "62",
		"days_other": 2,
		"dist_route": "163",
		"longitude": "0.818481",
		"days_camped": 5,
		"custom": "",
		"date_start": "2013-01-12",
		"latitude": "51.169000",
		"date_end": "",
		"days_walked": 9,
		"zoom": "9",
		"fullname": "Saxon Shore Way",
		"name": "Saxon Shore",
		"dist_walked": "100",
		"ldwa": "0932"
	},
	"speyside.way": {
		"days_walked": 0,
		"latitude": "57.405000",
		"date_end": "",
		"ldwa": "1015",
		"dist_walked": "0",
		"name": "Speyside Way",
		"zoom": "10",
		"fullname": "Speyside Way - National Trail",
		"dist_route": "66",
		"complete": "0",
		"days_other": 0,
		"date_start": "",
		"custom": "",
		"longitude": "-3.337100",
		"days_camped": 0
	},
	"join.2": {
		"name": "Aust to Chepstow",
		"zoom": "13",
		"fullname": "Aust to Chepstow",
		"ldwa": "9005",
		"dist_walked": "5",
		"date_end": "2013-05-07",
		"latitude": "51.621700",
		"days_walked": 1,
		"longitude": "-2.654060",
		"days_camped": 0,
		"custom": "",
		"date_start": "2013-05-07",
		"complete": "100",
		"days_other": 0,
		"dist_route": "5"
	},
	"e2": {
		"latitude": "54.699200",
		"date_end": "",
		"days_walked": 40,
		"name": "E2",
		"zoom": "6",
		"fullname": "E2 Dover to Stranraer",
		"ldwa": "0323",
		"dist_walked": "700",
		"complete": "79",
		"days_other": 4,
		"dist_route": "890",
		"days_camped": 34,
		"longitude": "-4.943850",
		"custom": "",
		"date_start": "2010-09-22"
	},
	"north.to.the.cape": {
		"longitude": "-5.026250",
		"days_camped": 0,
		"custom": "",
		"date_start": "",
		"complete": "0",
		"days_other": 0,
		"dist_route": "218",
		"name": "North to the Cape",
		"zoom": "8",
		"fullname": "North to the Cape",
		"ldwa": "0772",
		"dist_walked": "0",
		"latitude": "57.671800",
		"date_end": "",
		"days_walked": 0
	},
	"staunton.way": {
		"date_start": "",
		"custom": "",
		"longitude": "-0.952377",
		"days_camped": 0,
		"dist_route": "21",
		"days_other": 0,
		"complete": "0",
		"dist_walked": "0",
		"ldwa": "1044",
		"zoom": "12",
		"fullname": "Staunton Way",
		"name": "Staunton Way",
		"days_walked": 0,
		"latitude": "50.927900",
		"date_end": ""
	},
	"gloucestershire.way": {
		"name": "Gloucestershire Way",
		"zoom": "10",
		"fullname": "Gloucestershire Way",
		"ldwa": "0416",
		"dist_walked": "98",
		"date_end": "2013-08-23",
		"latitude": "51.808600",
		"days_walked": 6,
		"days_camped": 5,
		"longitude": "-2.230230",
		"date_start": "2013-08-18",
		"custom": "",
		"days_other": 0,
		"complete": "100",
		"dist_route": "98"
	},
	"kent.coast": {
		"dist_route": "205",
		"complete": "100",
		"days_other": 2,
		"date_start": "2013-01-11",
		"custom": "",
		"longitude": "0.832214",
		"days_camped": 8,
		"days_walked": 10,
		"date_end": "2013-01-21",
		"latitude": "51.198300",
		"ldwa": "0570",
		"dist_walked": "205",
		"name": "Kent Coast",
		"fullname": "Kent Coast Path",
		"zoom": "9"
	},
	"isle.of.wight.coast": {
		"date_end": "2013-01-02",
		"latitude": "50.670800",
		"days_walked": 4,
		"name": "Isle of Wight Coast",
		"zoom": "11",
		"fullname": "Isle of Wight Coastal Path",
		"ldwa": "0543",
		"dist_walked": "68",
		"days_other": 0,
		"complete": "100",
		"dist_route": "68",
		"days_camped": 3,
		"longitude": "-1.321790",
		"custom": "",
		"date_start": "2012-12-30"
	},
	"cotswold.way": {
		"latitude": "51.795000",
		"date_end": "",
		"days_walked": 0,
		"name": "Cotswold Way",
		"zoom": "9",
		"fullname": "Cotswold Way - National Trail",
		"ldwa": "0231",
		"dist_walked": "0",
		"complete": "0",
		"days_other": 0,
		"dist_route": "101",
		"days_camped": 0,
		"longitude": "-2.153320",
		"date_start": "",
		"custom": ""
	},
	"severn.way": {
		"dist_route": "271",
		"complete": "32",
		"days_other": 0,
		"date_start": "2013-05-04",
		"custom": "",
		"days_camped": 5,
		"longitude": "-2.982790",
		"days_walked": 7,
		"latitude": "52.147000",
		"date_end": "",
		"ldwa": "0943",
		"dist_walked": "88",
		"name": "Severn Way",
		"fullname": "Severn Way",
		"zoom": "8"
	},
	"northumberland.coast": {
		"days_walked": 0,
		"latitude": "55.522400",
		"date_end": "",
		"dist_walked": "0",
		"ldwa": "0783",
		"zoom": "9",
		"fullname": "Northumberland Coast Path",
		"name": "Northumberland Coast",
		"dist_route": "64",
		"complete": "0",
		"days_other": 0,
		"date_start": "",
		"custom": "",
		"days_camped": 0,
		"longitude": "-1.782530"
	},
	"lyke.wake.walk": {
		"ldwa": "0662",
		"dist_walked": "22",
		"name": "Lyke Wake Walk",
		"fullname": "Lyke Wake Walk",
		"zoom": "10",
		"days_walked": 2,
		"date_end": "",
		"latitude": "54.398100",
		"custom": "",
		"date_start": "2012-10-08",
		"days_camped": 1,
		"longitude": "-0.892639",
		"dist_route": "39",
		"days_other": 0,
		"complete": "56"
	},
	"etherow.goyt.valley": {
		"latitude": "53.428600",
		"date_end": "",
		"days_walked": 0,
		"zoom": "12",
		"fullname": "Etherow - Goyt Valley Way",
		"name": "Etherow - Goyt Valley",
		"dist_walked": "0",
		"ldwa": "0367",
		"days_other": 0,
		"complete": "0",
		"dist_route": "14",
		"longitude": "-2.040370",
		"days_camped": 0,
		"date_start": "",
		"custom": ""
	},
	"south.downs": {
		"days_walked": 4,
		"latitude": "50.786800",
		"date_end": "",
		"dist_walked": "72",
		"ldwa": "0999",
		"fullname": "South Downs Way - National Trail",
		"zoom": "9",
		"name": "South Downs",
		"dist_route": "98",
		"complete": "74",
		"days_other": 0,
		"custom": "",
		"date_start": "2013-01-06",
		"days_camped": 3,
		"longitude": "-0.359802"
	},
	"wey.navigations": {
		"name": "Wey Navigations",
		"zoom": "11",
		"fullname": "Wey Navigations",
		"ldwa": "1270",
		"dist_walked": "16",
		"date_end": "",
		"latitude": "51.282500",
		"days_walked": 2,
		"days_camped": 0,
		"longitude": "-0.534897",
		"custom": "",
		"date_start": "2013-02-08",
		"days_other": 0,
		"complete": "82",
		"dist_route": "20"
	},
	"e9": {
		"ldwa": "0328",
		"dist_walked": "448",
		"name": "E9",
		"zoom": "7",
		"fullname": "E9 Dover to Plymouth",
		"days_walked": 24,
		"date_end": "2013-01-12",
		"latitude": "50.590200",
		"custom": "",
		"date_start": "2012-06-13",
		"days_camped": 18,
		"longitude": "-1.450190",
		"dist_route": "448",
		"days_other": 4,
		"complete": "100"
	},
	"oxford.canal": {
		"zoom": "9",
		"fullname": "Oxford Canal Walk",
		"name": "Oxford Canal",
		"dist_walked": "11",
		"ldwa": "0803",
		"date_end": "",
		"latitude": "52.104800",
		"days_walked": 2,
		"days_camped": 1,
		"longitude": "-0.997009",
		"custom": "",
		"date_start": "2013-02-23",
		"days_other": 0,
		"complete": "13",
		"dist_route": "84"
	},
	"three.ridings": {
		"days_walked": 0,
		"latitude": "53.985200",
		"date_end": "",
		"dist_walked": "0",
		"ldwa": "1131",
		"zoom": "8",
		"fullname": "Three Ridings on Foot",
		"name": "Three Ridings",
		"dist_route": "444",
		"days_other": 0,
		"complete": "0",
		"custom": "",
		"date_start": "",
		"days_camped": 0,
		"longitude": "-1.312870"
	},
	"dales.top.ten": {
		"days_walked": 3,
		"latitude": "54.265200",
		"date_end": "",
		"dist_walked": "24",
		"ldwa": "1326",
		"zoom": "10",
		"fullname": "Yorkshire Dales Top Ten",
		"name": "Dales Top Ten",
		"dist_route": "78",
		"complete": "31",
		"days_other": 0,
		"custom": "",
		"date_start": "2010-09-25",
		"longitude": "-2.241210",
		"days_camped": 1
	},
	"itchen.way": {
		"days_walked": 0,
		"date_end": "",
		"latitude": "50.984400",
		"dist_walked": "0",
		"ldwa": "0545",
		"fullname": "Itchen Way",
		"zoom": "11",
		"name": "Itchen Way",
		"dist_route": "30",
		"complete": "0",
		"days_other": 0,
		"date_start": "",
		"custom": "",
		"days_camped": 0,
		"longitude": "-1.290210"
	},
	"standedge.trail": {
		"name": "Standedge Trail",
		"zoom": "13",
		"fullname": "Standedge Trail",
		"ldwa": "1041",
		"dist_walked": "0",
		"date_end": "",
		"latitude": "53.585900",
		"days_walked": 0,
		"days_camped": 0,
		"longitude": "-1.959690",
		"date_start": "",
		"custom": "",
		"days_other": 0,
		"complete": "0",
		"dist_route": "11"
	},
	"snowdonia.to.the.gower": {
		"days_other": 0,
		"complete": "0",
		"dist_route": "209",
		"days_camped": 0,
		"longitude": "-3.850710",
		"date_start": "",
		"custom": "",
		"latitude": "52.425900",
		"date_end": "",
		"days_walked": 0,
		"name": "Snowdonia to the Gower",
		"fullname": "Snowdonia to the Gower",
		"zoom": "8",
		"ldwa": "0208",
		"dist_walked": "0"
	},
	"coastline": {
		"date_start": "2012-04-30",
		"custom": "",
		"longitude": "-3.143850",
		"days_camped": 110,
		"dist_route": "5883",
		"complete": "40",
		"days_other": 5,
		"dist_walked": "2333",
		"ldwa": "0000",
		"fullname": "Coastline of Britain",
		"zoom": "6",
		"name": "Coastline",
		"days_walked": 123,
		"latitude": "54.699200",
		"date_end": ""
	},
	"rochdale.way": {
		"days_other": 0,
		"complete": "0",
		"dist_route": "48",
		"days_camped": 0,
		"longitude": "-2.146450",
		"custom": "",
		"date_start": "",
		"date_end": "",
		"latitude": "53.613100",
		"days_walked": 0,
		"fullname": "Rochdale Way",
		"zoom": "12",
		"name": "Rochdale Way",
		"dist_walked": "0",
		"ldwa": "0891"
	},
	"cleveland.way": {
		"dist_walked": "13",
		"ldwa": "0200",
		"fullname": "Cleveland Way - National Trail",
		"zoom": "10",
		"name": "Cleveland Way",
		"days_walked": 2,
		"date_end": "",
		"latitude": "54.404500",
		"custom": "",
		"date_start": "2012-10-08",
		"longitude": "-0.802002",
		"days_camped": 1,
		"dist_route": "107",
		"complete": "12",
		"days_other": 0
	},
	"wysis.way": {
		"zoom": "10",
		"fullname": "Wysis Way",
		"name": "Wysis Way",
		"dist_walked": "7",
		"ldwa": "1318",
		"latitude": "51.778900",
		"date_end": "",
		"days_walked": 1,
		"days_camped": 0,
		"longitude": "-2.395020",
		"date_start": "2013-02-28",
		"custom": "",
		"days_other": 0,
		"complete": "14",
		"dist_route": "52"
	},
	"tyne.estuary": {
		"date_start": "",
		"custom": "",
		"days_camped": 0,
		"longitude": "-1.937710",
		"dist_route": "87",
		"complete": "0",
		"days_other": 0,
		"ldwa": "1186",
		"dist_walked": "0",
		"name": "Tyne Estuary",
		"zoom": "10",
		"fullname": "Tyne Estuary to Source",
		"days_walked": 0,
		"latitude": "54.901100",
		"date_end": ""
	},
	"join.3": {
		"days_walked": 1,
		"latitude": "55.899200",
		"date_end": "2013-06-10",
		"ldwa": "9006",
		"dist_walked": "7",
		"name": "Gourock to Toward Point",
		"fullname": "Gourock to Toward Point",
		"zoom": "11",
		"dist_route": "7",
		"complete": "100",
		"days_other": 0,
		"date_start": "2013-06-10",
		"custom": "",
		"days_camped": 0,
		"longitude": "-4.889600"
	},
	"join.1": {
		"date_end": "2013-05-04",
		"latitude": "51.346100",
		"days_walked": 4,
		"name": "Bridgwater to Avonmouth",
		"fullname": "Bridgwater to Avonmouth",
		"zoom": "10",
		"ldwa": "9004",
		"dist_walked": "62",
		"days_other": 0,
		"complete": "100",
		"dist_route": "62",
		"longitude": "-2.923740",
		"days_camped": 3,
		"custom": "",
		"date_start": "2013-05-01"
	},
	"coast.to.coast.south": {
		"days_walked": 0,
		"latitude": "51.141400",
		"date_end": "",
		"dist_walked": "0",
		"ldwa": "0209",
		"fullname": "Southern Coast to Coast",
		"zoom": "8",
		"name": "Southern Coast to Coast",
		"dist_route": "278",
		"complete": "0",
		"days_other": 0,
		"date_start": "",
		"custom": "",
		"days_camped": 0,
		"longitude": "-1.142580"
	},
	"1066.country.walk": {
		"days_other": 0,
		"complete": "93",
		"dist_route": "32",
		"longitude": "0.521851",
		"days_camped": 2,
		"date_start": "2013-01-09",
		"custom": "",
		"latitude": "50.884800",
		"date_end": "",
		"days_walked": 3,
		"zoom": "11",
		"fullname": "1066 Country Walk",
		"name": "1066 Country Walk",
		"dist_walked": "30",
		"ldwa": "0001"
	},
	"ribble.way": {
		"ldwa": "0870",
		"dist_walked": "0",
		"name": "Ribble Way",
		"zoom": "9",
		"fullname": "Ribble Way",
		"days_walked": 0,
		"date_end": "",
		"latitude": "53.964200",
		"custom": "",
		"date_start": "",
		"days_camped": 0,
		"longitude": "-2.419740",
		"dist_route": "69",
		"complete": "0",
		"days_other": 0
	},
	"great.glen.way": {
		"name": "Great Glen Way",
		"zoom": "9",
		"fullname": "Great Glen Way - National Trail",
		"ldwa": "0439",
		"dist_walked": "0",
		"latitude": "57.166000",
		"date_end": "",
		"days_walked": 0,
		"longitude": "-4.600520",
		"days_camped": 0,
		"date_start": "",
		"custom": "",
		"complete": "0",
		"days_other": 0,
		"dist_route": "73"
	},
	"join.6": {
		"name": "Liverpool to Sefton",
		"fullname": "Liverpool to Sefton",
		"zoom": "12",
		"ldwa": "9009",
		"dist_walked": "7",
		"date_end": "2014-05-31",
		"latitude": "53.441000",
		"days_walked": 1,
		"days_camped": 0,
		"longitude": "-3.006130",
		"date_start": "2014-05-31",
		"custom": "",
		"days_other": 0,
		"complete": "100",
		"dist_route": "7"
	},
	"hadrians.wall": {
		"name": "Hadrian's Wall",
		"zoom": "9",
		"fullname": "Hadrian's Wall Path - National Trail",
		"ldwa": "0455",
		"dist_walked": "24",
		"date_end": "",
		"latitude": "54.963400",
		"days_walked": 3,
		"longitude": "-2.364810",
		"days_camped": 1,
		"custom": "",
		"date_start": "2012-10-14",
		"complete": "28",
		"days_other": 0,
		"dist_route": "85"
	},
	"cumbrian.trident": {
		"days_walked": 0,
		"latitude": "54.509100",
		"date_end": "",
		"dist_walked": "0",
		"ldwa": "0255",
		"zoom": "10",
		"fullname": "Cumbrian Classic Trident Walk",
		"name": "Cumbrian Trident",
		"dist_route": "97",
		"complete": "0",
		"days_other": 0,
		"custom": "",
		"date_start": "",
		"longitude": "-3.081670",
		"days_camped": 0
	},
	"west.somerset.coast": {
		"complete": "100",
		"days_other": 0,
		"dist_route": "28",
		"longitude": "-3.258820",
		"days_camped": 1,
		"date_start": "2013-04-29",
		"custom": "",
		"date_end": "2013-04-30",
		"latitude": "51.172900",
		"days_walked": 2,
		"name": "West Somerset Coast",
		"zoom": "11",
		"fullname": "West Somerset Coast Path",
		"ldwa": "1264",
		"dist_walked": "28"
	},
	"join.7": {
		"dist_route": "25",
		"complete": "100",
		"days_other": 0,
		"date_start": "2014-06-01",
		"custom": "",
		"days_camped": 1,
		"longitude": "-2.838940",
		"days_walked": 2,
		"date_end": "2014-06-02",
		"latitude": "53.743400",
		"dist_walked": "25",
		"ldwa": "9010",
		"fullname": "Sefton to Lancashire",
		"zoom": "12",
		"name": "Sefton to Lancashire"
	},
	"goyt.way": {
		"latitude": "53.371700",
		"date_end": "",
		"days_walked": 0,
		"fullname": "Goyt Way",
		"zoom": "12",
		"name": "Goyt Way",
		"dist_walked": "0",
		"ldwa": "0425",
		"days_other": 0,
		"complete": "0",
		"dist_route": "10",
		"longitude": "-2.028350",
		"days_camped": 0,
		"date_start": "",
		"custom": ""
	},
	"three.towers": {
		"latitude": "51.510000",
		"date_end": "2010-04-10",
		"days_walked": 1,
		"zoom": "11",
		"fullname": "Three Towers",
		"name": "Three Towers",
		"dist_walked": "44",
		"ldwa": "9001",
		"days_other": 0,
		"complete": "100",
		"dist_route": "44",
		"days_camped": 0,
		"longitude": "-1.198200",
		"date_start": "2010-04-10",
		"custom": ""
	},
	"dales.challenge": {
		"dist_walked": "0",
		"ldwa": "1325",
		"zoom": "12",
		"fullname": "Yorkshire Dales Challenge Walk",
		"name": "Dales Challenge",
		"days_walked": 0,
		"date_end": "",
		"latitude": "54.178700",
		"custom": "",
		"date_start": "",
		"days_camped": 0,
		"longitude": "-2.117270",
		"dist_route": "22",
		"days_other": 0,
		"complete": "0"
	},
	"coventry.way": {
		"complete": "9",
		"days_other": 0,
		"dist_route": "41",
		"longitude": "-1.492080",
		"days_camped": 0,
		"custom": "",
		"date_start": "2012-12-18",
		"date_end": "",
		"latitude": "52.410000",
		"days_walked": 1,
		"name": "Coventry Way",
		"zoom": "11",
		"fullname": "Coventry Way",
		"ldwa": "0234",
		"dist_walked": "4"
	},
	"yorkshire.wolds": {
		"days_walked": 0,
		"date_end": "",
		"latitude": "53.963400",
		"dist_walked": "0",
		"ldwa": "1331",
		"fullname": "Yorkshire Wolds Way - National Trail",
		"zoom": "10",
		"name": "Yorkshire Wolds Way",
		"dist_route": "79",
		"complete": "0",
		"days_other": 0,
		"date_start": "",
		"custom": "",
		"longitude": "-0.440826",
		"days_camped": 0
	},
	"tameside.trail": {
		"date_end": "",
		"latitude": "53.478900",
		"days_walked": 1,
		"name": "Tameside Trail",
		"zoom": "12",
		"fullname": "Tameside Trail",
		"ldwa": "1081",
		"dist_walked": "10",
		"days_other": 0,
		"complete": "28",
		"dist_route": "35",
		"days_camped": 0,
		"longitude": "-2.075390",
		"custom": "",
		"date_start": "2012-12-11"
	},
	"oldham.way": {
		"days_walked": 3,
		"date_end": "",
		"latitude": "53.544200",
		"ldwa": "0793",
		"dist_walked": "12",
		"name": "Oldham Way",
		"fullname": "Oldham Way",
		"zoom": "12",
		"dist_route": "39",
		"complete": "30",
		"days_other": 0,
		"custom": "",
		"date_start": "2010-09-22",
		"days_camped": 1,
		"longitude": "-2.065090"
	},
	"heart.of.england": {
		"date_end": "",
		"latitude": "52.357200",
		"days_walked": 6,
		"name": "Heart of England",
		"fullname": "Heart of England Way",
		"zoom": "9",
		"ldwa": "0477",
		"dist_walked": "100",
		"complete": "96",
		"days_other": 0,
		"dist_route": "104",
		"days_camped": 5,
		"longitude": "-1.845700",
		"date_start": "2012-12-16",
		"custom": ""
	},
	"pennine.way": {
		"name": "Pennine Way",
		"fullname": "Pennine Way - National Trail",
		"zoom": "7",
		"ldwa": "0834",
		"dist_walked": "261",
		"latitude": "53.994900",
		"date_end": "2012-10-18",
		"days_walked": 16,
		"longitude": "-0.769043",
		"days_camped": 15,
		"date_start": "2010-09-20",
		"custom": "",
		"complete": "100",
		"days_other": 3,
		"dist_route": "261"
	},
	"macmillan.way.west": {
		"days_camped": 0,
		"longitude": "-3.342590",
		"date_start": "",
		"custom": "",
		"complete": "0",
		"days_other": 0,
		"dist_route": "102",
		"name": "Macmillan Way West",
		"fullname": "Macmillan Way West",
		"zoom": "9",
		"ldwa": "0668",
		"dist_walked": "0",
		"latitude": "51.110400",
		"date_end": "",
		"days_walked": 0
	},
	"wainwrights": {
		"complete": "100",
		"days_other": 1,
		"dist_route": "101",
		"longitude": "-3.079490",
		"days_camped": 6,
		"custom": "",
		"date_start": "2012-10-22",
		"latitude": "54.484200",
		"date_end": "2012-10-28",
		"days_walked": 7,
		"fullname": "Wainwrights - Lake District",
		"zoom": "10",
		"name": "Wainwrights",
		"dist_walked": "101",
		"ldwa": "9002"
	},
	"macmillan.abbotsbury.langport": {
		"days_walked": 0,
		"date_end": "",
		"latitude": "50.875300",
		"ldwa": "0665",
		"dist_walked": "0",
		"name": "Macmillan Abbotsbury Langport",
		"zoom": "10",
		"fullname": "Macmillan Abbotsbury Langport Link",
		"dist_route": "40",
		"days_other": 0,
		"complete": "0",
		"date_start": "",
		"custom": "",
		"longitude": "-2.712250",
		"days_camped": 0
	},
	"nelson.way": {
		"zoom": "8",
		"fullname": "Nelson Way",
		"name": "Nelson Way",
		"dist_walked": "0",
		"ldwa": "0746",
		"latitude": "51.730400",
		"date_end": "",
		"days_walked": 0,
		"days_camped": 0,
		"longitude": "0.318604",
		"date_start": "",
		"custom": "",
		"days_other": 0,
		"complete": "0",
		"dist_route": "406"
	},
	"dales.centurion": {
		"days_walked": 3,
		"latitude": "54.308500",
		"date_end": "",
		"dist_walked": "25",
		"ldwa": "1324",
		"fullname": "Yorkshire Dales Centurion Walk",
		"zoom": "10",
		"name": "Dales Centurion",
		"dist_route": "101",
		"complete": "25",
		"days_other": 1,
		"date_start": "2011-08-03",
		"custom": "",
		"longitude": "-2.234340",
		"days_camped": 0
	},
	"yorkshire.three.peaks": {
		"dist_route": "24",
		"days_other": 0,
		"complete": "100",
		"date_start": "2011-08-03",
		"custom": "",
		"days_camped": 0,
		"longitude": "-2.333220",
		"days_walked": 1,
		"date_end": "2011-08-03",
		"latitude": "54.189000",
		"ldwa": "1130",
		"dist_walked": "24",
		"name": "Yorkshire Three Peaks",
		"fullname": "Yorkshire Three Peaks",
		"zoom": "12"
	},
	"dales.way": {
		"days_walked": 0,
		"date_end": "",
		"latitude": "54.191400",
		"dist_walked": "0",
		"ldwa": "0262",
		"fullname": "Dales Way",
		"zoom": "9",
		"name": "Dales Way",
		"dist_route": "78",
		"complete": "0",
		"days_other": 0,
		"custom": "",
		"date_start": "",
		"days_camped": 0,
		"longitude": "-2.296140"
	},
	"sefton.coast": {
		"latitude": "53.581500",
		"date_end": "2014-06-01",
		"days_walked": 2,
		"name": "Sefton Coast",
		"zoom": "11",
		"fullname": "Sefton Coastal Path",
		"ldwa": "0935",
		"dist_walked": "20",
		"days_other": 0,
		"complete": "100",
		"dist_route": "20",
		"days_camped": 1,
		"longitude": "-3.019870",
		"custom": "",
		"date_start": "2014-05-31"
	},
	"eskdale.way": {
		"latitude": "54.434900",
		"date_end": "",
		"days_walked": 0,
		"name": "Eskdale Way",
		"zoom": "11",
		"fullname": "Eskdale Way",
		"ldwa": "0363",
		"dist_walked": "0",
		"days_other": 0,
		"complete": "0",
		"dist_route": "88",
		"days_camped": 0,
		"longitude": "-0.843201",
		"date_start": "",
		"custom": ""
	},
	"staffordshire.way": {
		"dist_walked": "45",
		"ldwa": "1040",
		"zoom": "9",
		"fullname": "Staffordshire Way",
		"name": "Staffordshire Way",
		"days_walked": 3,
		"latitude": "52.792800",
		"date_end": "",
		"date_start": "2012-12-13",
		"custom": "",
		"days_camped": 2,
		"longitude": "-2.046200",
		"dist_route": "97",
		"days_other": 0,
		"complete": "47"
	},
	"snowdon.horseshoe": {
		"date_end": "2005-08-20",
		"latitude": "53.069200",
		"days_walked": 1,
		"name": "Snowdon Horseshoe",
		"fullname": "Snowdon Horseshoe",
		"zoom": "14",
		"ldwa": "9000",
		"dist_walked": "8",
		"complete": "100",
		"days_other": 0,
		"dist_route": "8",
		"days_camped": 0,
		"longitude": "-4.050010",
		"custom": "",
		"date_start": "2005-08-20"
	},
	"river.parrett": {
		"ldwa": "0881",
		"dist_walked": "12",
		"name": "River Parrett",
		"zoom": "10",
		"fullname": "River Parrett Trail",
		"days_walked": 2,
		"latitude": "51.024100",
		"date_end": "",
		"custom": "",
		"date_start": "2013-04-30",
		"days_camped": 1,
		"longitude": "-2.855070",
		"dist_route": "46",
		"complete": "26",
		"days_other": 0
	},
	"mull.of.galloway.trail": {
		"dist_walked": "0",
		"ldwa": "0737",
		"fullname": "Mull of Galloway Trail",
		"zoom": "10",
		"name": "Mull of Galloway Trail",
		"days_walked": 0,
		"latitude": "54.846600",
		"date_end": "",
		"custom": "",
		"date_start": "",
		"days_camped": 0,
		"longitude": "-4.980930",
		"dist_route": "36",
		"complete": "0",
		"days_other": 0
	},
	"staffordshire.moorlands": {
		"complete": "29",
		"days_other": 0,
		"dist_route": "23",
		"days_camped": 0,
		"longitude": "-1.883120",
		"custom": "",
		"date_start": "2012-12-14",
		"date_end": "",
		"latitude": "53.000700",
		"days_walked": 1,
		"fullname": "Staffordshire Moorlands Challenge Walk",
		"zoom": "12",
		"name": "Staffordshire Moorlands",
		"dist_walked": "7",
		"ldwa": "1039"
	},
	"lancashire.coast": {
		"name": "Lancashire Coast",
		"zoom": "10",
		"fullname": "Lancashire Coastal Way",
		"ldwa": "0600",
		"dist_walked": "71",
		"latitude": "53.956100",
		"date_end": "2014-06-06",
		"days_walked": 5,
		"longitude": "-2.860560",
		"days_camped": 4,
		"date_start": "2014-06-02",
		"custom": "",
		"days_other": 0,
		"complete": "100",
		"dist_route": "71"
	},
	"heart.of.snowdonia": {
		"days_walked": 0,
		"date_end": "",
		"latitude": "53.081200",
		"dist_walked": "0",
		"ldwa": "0478",
		"zoom": "11",
		"fullname": "Heart of Snowdonia",
		"name": "Heart of Snowdonia",
		"dist_route": "49",
		"complete": "0",
		"days_other": 0,
		"custom": "",
		"date_start": "",
		"longitude": "-4.011380",
		"days_camped": 0
	},
	"north.downs": {
		"dist_route": "128",
		"days_other": 1,
		"complete": "100",
		"custom": "",
		"date_start": "2013-01-12",
		"longitude": "0.285645",
		"days_camped": 5,
		"days_walked": 7,
		"latitude": "51.063800",
		"date_end": "2013-02-08",
		"ldwa": "0767",
		"dist_walked": "128",
		"name": "North Downs",
		"fullname": "North Downs Way - National Trail",
		"zoom": "9"
	},
	"todmorden.centenary": {
		"days_walked": 0,
		"latitude": "53.705900",
		"date_end": "",
		"dist_walked": "0",
		"ldwa": "1148",
		"fullname": "Todmorden Centenary Way",
		"zoom": "13",
		"name": "Todmorden Centenary",
		"dist_route": "24",
		"days_other": 0,
		"complete": "0",
		"custom": "",
		"date_start": "",
		"days_camped": 0,
		"longitude": "-2.097700"
	},
	"coast.to.coast.scotland": {
		"custom": "",
		"date_start": "",
		"longitude": "-4.213260",
		"days_camped": 0,
		"dist_route": "134",
		"days_other": 0,
		"complete": "0",
		"dist_walked": "0",
		"ldwa": "0207",
		"zoom": "8",
		"fullname": "Coast to Coast Scotland",
		"name": "Coast to Coast Scotland",
		"days_walked": 0,
		"latitude": "56.398700",
		"date_end": ""
	},
	"rob.roy.way": {
		"ldwa": "0888",
		"dist_walked": "0",
		"name": "Rob Roy Way",
		"zoom": "9",
		"fullname": "Rob Roy Way",
		"days_walked": 0,
		"latitude": "56.409300",
		"date_end": "",
		"date_start": "",
		"custom": "",
		"days_camped": 0,
		"longitude": "-4.095150",
		"dist_route": "79",
		"days_other": 0,
		"complete": "0"
	},
	"gritstone.trail": {
		"complete": "59",
		"days_other": 0,
		"dist_route": "35",
		"longitude": "-2.140960",
		"days_camped": 1,
		"date_start": "2012-12-12",
		"custom": "",
		"date_end": "",
		"latitude": "53.217500",
		"days_walked": 2,
		"zoom": "10",
		"fullname": "Gritstone Trail",
		"name": "Gritstone Trail",
		"dist_walked": "21",
		"ldwa": "0450"
	}
}
